{
"type": "FeatureCollection",
"crs": { "type": "name", "properties": { "name": "urn:ogc:def:crs:EPSG::4279" } },
                                                                                
"features": [
{ "type": "Feature", "properties": { "ID": 48.000000, "NAME": "Y Fenni", "ORIENTATIO": 0, "FONTCOLOUR": 1.000000, "FONTHEIGHT": 7.000000, "FONTTYPE": 2.000000, "HTMLNAME": "Abergavenny", "WDS_ID": 0, "TI_572": null, "CHDI_572": null, "CAU_448": null, "THDI_572": null, "NAME_CY_EN": "Y Fenni\/Abergavenny" }, "geometry": { "type": "Point", "coordinates": [ -3.009921360352236, 51.81945729047176 ] } },
{ "type": "Feature", "properties": { "ID": 14.000000, "NAME": "Caergybi", "ORIENTATIO": 0, "FONTCOLOUR": 1.000000, "FONTHEIGHT": 9.000000, "FONTTYPE": 2.000000, "HTMLNAME": "Holyhead", "WDS_ID": 0, "TI_572": null, "CHDI_572": null, "CAU_448": null, "THDI_572": null, "NAME_CY_EN": "Caergybi\/Holyhead" }, "geometry": { "type": "Point", "coordinates": [ -4.637079626072728, 53.312922746673259 ] } },
{ "type": "Feature", "properties": { "ID": 39.000000, "NAME": "Pwllheli", "ORIENTATIO": 0, "FONTCOLOUR": 1.000000, "FONTHEIGHT": 9.000000, "FONTTYPE": 3.000000, "HTMLNAME": "Pwllheli", "WDS_ID": 16, "TI_572": null, "CHDI_572": "chdi", "CAU_448": "cau", "THDI_572": null, "NAME_CY_EN": "Pwllheli" }, "geometry": { "type": "Point", "coordinates": [ -4.407726142153408, 52.888250724334476 ] } },
{ "type": "Feature", "properties": { "ID": 15.000000, "NAME": "Caernarfon", "ORIENTATIO": 0, "FONTCOLOUR": 1.000000, "FONTHEIGHT": 9.000000, "FONTTYPE": 3.000000, "HTMLNAME": "Caernarfon", "WDS_ID": 6, "TI_572": null, "CHDI_572": "chdi", "CAU_448": null, "THDI_572": null, "NAME_CY_EN": "Caernarfon" }, "geometry": { "type": "Point", "coordinates": [ -4.264510625517318, 53.141241817412073 ] } },
{ "type": "Feature", "properties": { "ID": 30.000000, "NAME": "Llangefni", "ORIENTATIO": 0, "FONTCOLOUR": 1.000000, "FONTHEIGHT": 9.000000, "FONTTYPE": 2.000000, "HTMLNAME": "Llangefni", "WDS_ID": 3, "TI_572": null, "CHDI_572": "chdi", "CAU_448": "cau", "THDI_572": null, "NAME_CY_EN": "Llangefni" }, "geometry": { "type": "Point", "coordinates": [ -4.32087220640999, 53.253091561490294 ] } },
{ "type": "Feature", "properties": { "ID": 8.000000, "NAME": "Amlwch", "ORIENTATIO": 0, "FONTCOLOUR": 1.000000, "FONTHEIGHT": 9.000000, "FONTTYPE": 2.000000, "HTMLNAME": "Amlwch", "WDS_ID": 0, "TI_572": null, "CHDI_572": null, "CAU_448": null, "THDI_572": null, "NAME_CY_EN": "Amlwch" }, "geometry": { "type": "Point", "coordinates": [ -4.351996272837774, 53.409257978239268 ] } },
{ "type": "Feature", "properties": { "ID": 37.000000, "NAME": "Porthmadog", "ORIENTATIO": 0, "FONTCOLOUR": 1.000000, "FONTHEIGHT": 9.000000, "FONTTYPE": 2.000000, "HTMLNAME": "Porthmadog", "WDS_ID": 0, "TI_572": null, "CHDI_572": null, "CAU_448": null, "THDI_572": null, "NAME_CY_EN": "Porthmadog" }, "geometry": { "type": "Point", "coordinates": [ -4.139311936295547, 52.925489138278216 ] } },
{ "type": "Feature", "properties": { "ID": 10.000000, "NAME": "Bangor", "ORIENTATIO": 0, "FONTCOLOUR": 1.000000, "FONTHEIGHT": 10.000000, "FONTTYPE": 3.000000, "HTMLNAME": "Bangor", "WDS_ID": 7, "TI_572": null, "CHDI_572": "chdi", "CAU_448": "cau", "THDI_572": null, "NAME_CY_EN": "Bangor" }, "geometry": { "type": "Point", "coordinates": [ -4.119857590668253, 53.225974672903384 ] } },
{ "type": "Feature", "properties": { "ID": 4.000000, "NAME": "Abermaw", "ORIENTATIO": 0, "FONTCOLOUR": 1.000000, "FONTHEIGHT": 9.000000, "FONTTYPE": 2.000000, "HTMLNAME": "Barmouth", "WDS_ID": 46, "TI_572": null, "CHDI_572": "chdi", "CAU_448": "cau", "THDI_572": null, "NAME_CY_EN": "Abermaw\/Barmouth" }, "geometry": { "type": "Point", "coordinates": [ -4.047961397942049, 52.722543876284291 ] } },
{ "type": "Feature", "properties": { "ID": 31.000000, "NAME": "Machynlleth", "ORIENTATIO": 0, "FONTCOLOUR": 1.000000, "FONTHEIGHT": 9.000000, "FONTTYPE": 2.000000, "HTMLNAME": "Machynlleth", "WDS_ID": 0, "TI_572": null, "CHDI_572": null, "CAU_448": null, "THDI_572": null, "NAME_CY_EN": "Machynlleth" }, "geometry": { "type": "Point", "coordinates": [ -3.852715726076033, 52.588347504747489 ] } },
{ "type": "Feature", "properties": { "ID": 23.000000, "NAME": "Dolgellau", "ORIENTATIO": 0, "FONTCOLOUR": 1.000000, "FONTHEIGHT": 9.000000, "FONTTYPE": 3.000000, "HTMLNAME": "Dolgellau", "WDS_ID": 0, "TI_572": null, "CHDI_572": null, "CAU_448": null, "THDI_572": null, "NAME_CY_EN": "Dolgellau" }, "geometry": { "type": "Point", "coordinates": [ -3.892346852814663, 52.740173057469484 ] } },
{ "type": "Feature", "properties": { "ID": 12.000000, "NAME": "Blaenau Ffestiniog", "ORIENTATIO": 0, "FONTCOLOUR": 1.000000, "FONTHEIGHT": 9.000000, "FONTTYPE": 2.000000, "HTMLNAME": "Blaenau Ffestiniog", "WDS_ID": 43, "TI_572": null, "CHDI_572": "chdi", "CAU_448": null, "THDI_572": null, "NAME_CY_EN": "Blaenau Ffestiniog" }, "geometry": { "type": "Point", "coordinates": [ -3.925115916608195, 52.994307923071901 ] } },
{ "type": "Feature", "properties": { "ID": 11.000000, "NAME": "Betws-y-Coed", "ORIENTATIO": 0, "FONTCOLOUR": 1.000000, "FONTHEIGHT": 9.000000, "FONTTYPE": 2.000000, "HTMLNAME": "Betws-y-Coed", "WDS_ID": 0, "TI_572": null, "CHDI_572": null, "CAU_448": null, "THDI_572": null, "NAME_CY_EN": "Betws-y-Coed" }, "geometry": { "type": "Point", "coordinates": [ -3.808775519499693, 53.089167211032482 ] } },
{ "type": "Feature", "properties": { "ID": 19.000000, "NAME": "Conwy", "ORIENTATIO": 0, "FONTCOLOUR": 1.000000, "FONTHEIGHT": 10.000000, "FONTTYPE": 2.000000, "HTMLNAME": "Conwy", "WDS_ID": 0, "TI_572": null, "CHDI_572": null, "CAU_448": null, "THDI_572": null, "NAME_CY_EN": "Conwy" }, "geometry": { "type": "Point", "coordinates": [ -3.83333890169876, 53.277659620200531 ] } },
{ "type": "Feature", "properties": { "ID": 28.000000, "NAME": "Llandudno", "ORIENTATIO": 0, "FONTCOLOUR": 1.000000, "FONTHEIGHT": 9.000000, "FONTTYPE": 3.000000, "HTMLNAME": "Llandudno", "WDS_ID": 0, "TI_572": null, "CHDI_572": null, "CAU_448": null, "THDI_572": null, "NAME_CY_EN": "Llandudno" }, "geometry": { "type": "Point", "coordinates": [ -3.837121680607023, 53.324089526420153 ] } },
{ "type": "Feature", "properties": { "ID": 9.000000, "NAME": "Bae Colwyn", "ORIENTATIO": 0, "FONTCOLOUR": 1.000000, "FONTHEIGHT": 10.000000, "FONTTYPE": 2.000000, "HTMLNAME": "Colwyn Bay", "WDS_ID": 0, "TI_572": null, "CHDI_572": null, "CAU_448": null, "THDI_572": null, "NAME_CY_EN": "Bae Colwyn\/Colwyn Bay" }, "geometry": { "type": "Point", "coordinates": [ -3.712639940183409, 53.285101084822379 ] } },
{ "type": "Feature", "properties": { "ID": 46.000000, "NAME": "Y Bala", "ORIENTATIO": 0, "FONTCOLOUR": 1.000000, "FONTHEIGHT": 9.000000, "FONTTYPE": 3.000000, "HTMLNAME": "Bala", "WDS_ID": 0, "TI_572": null, "CHDI_572": null, "CAU_448": null, "THDI_572": null, "NAME_CY_EN": "Y Bala\/Bala" }, "geometry": { "type": "Point", "coordinates": [ -3.603075651084828, 52.910698832651214 ] } },
{ "type": "Feature", "properties": { "ID": 21.000000, "NAME": "Dinbych", "ORIENTATIO": 0, "FONTCOLOUR": 1.000000, "FONTHEIGHT": 9.000000, "FONTTYPE": 3.000000, "HTMLNAME": "Denbigh", "WDS_ID": 0, "TI_572": null, "CHDI_572": null, "CAU_448": null, "THDI_572": null, "NAME_CY_EN": "Dinbych\/Denbigh" }, "geometry": { "type": "Point", "coordinates": [ -3.426948741829468, 53.182893442284076 ] } },
{ "type": "Feature", "properties": { "ID": 41.000000, "NAME": "Y Rhyl", "ORIENTATIO": 0, "FONTCOLOUR": 1.000000, "FONTHEIGHT": 10.000000, "FONTTYPE": 3.000000, "HTMLNAME": "Rhyl", "WDS_ID": 0, "TI_572": null, "CHDI_572": null, "CAU_448": null, "THDI_572": null, "NAME_CY_EN": "Y Rhyl\/Rhyl" }, "geometry": { "type": "Point", "coordinates": [ -3.495564046699631, 53.321675162685672 ] } },
{ "type": "Feature", "properties": { "ID": 38.000000, "NAME": "Prestatyn", "ORIENTATIO": 0, "FONTCOLOUR": 1.000000, "FONTHEIGHT": 10.000000, "FONTTYPE": 3.000000, "HTMLNAME": "Prestatyn", "WDS_ID": 0, "TI_572": null, "CHDI_572": null, "CAU_448": null, "THDI_572": null, "NAME_CY_EN": "Prestatyn" }, "geometry": { "type": "Point", "coordinates": [ -3.412035592753847, 53.3313896380184 ] } },
{ "type": "Feature", "properties": { "ID": 40.000000, "NAME": "Rhuthun", "ORIENTATIO": 0, "FONTCOLOUR": 1.000000, "FONTHEIGHT": 9.000000, "FONTTYPE": 2.000000, "HTMLNAME": "Ruthin", "WDS_ID": 0, "TI_572": null, "CHDI_572": null, "CAU_448": null, "THDI_572": null, "NAME_CY_EN": "Rhuthun\/Ruthin" }, "geometry": { "type": "Point", "coordinates": [ -3.317648055245579, 53.114549537944207 ] } },
{ "type": "Feature", "properties": { "ID": 50.000000, "NAME": "Y Trallwng", "ORIENTATIO": 0, "FONTCOLOUR": 1.000000, "FONTHEIGHT": 9.000000, "FONTTYPE": 3.000000, "HTMLNAME": "Welshpool", "WDS_ID": 0, "TI_572": null, "CHDI_572": null, "CAU_448": null, "THDI_572": null, "NAME_CY_EN": "Y Trallwng\/Welshpool" }, "geometry": { "type": "Point", "coordinates": [ -3.137135727328613, 52.659674868546539 ] } },
{ "type": "Feature", "properties": { "ID": 49.000000, "NAME": "Y Fflint", "ORIENTATIO": 0, "FONTCOLOUR": 1.000000, "FONTHEIGHT": 9.000000, "FONTTYPE": 2.000000, "HTMLNAME": "Flint", "WDS_ID": 0, "TI_572": null, "CHDI_572": null, "CAU_448": null, "THDI_572": null, "NAME_CY_EN": "Y Fflint\/Flint" }, "geometry": { "type": "Point", "coordinates": [ -3.142627042044591, 53.245433691854565 ] } },
{ "type": "Feature", "properties": { "ID": 45.000000, "NAME": "Wrecsam", "ORIENTATIO": 0, "FONTCOLOUR": 1.000000, "FONTHEIGHT": 11.000000, "FONTTYPE": 3.000000, "HTMLNAME": "Wrexham", "WDS_ID": 0, "TI_572": null, "CHDI_572": null, "CAU_448": null, "THDI_572": null, "NAME_CY_EN": "Wrecsam\/Wrexham" }, "geometry": { "type": "Point", "coordinates": [ -2.982818946460787, 53.045626655445076 ] } },
{ "type": "Feature", "properties": { "ID": 44.000000, "NAME": "Tyddewi", "ORIENTATIO": 0, "FONTCOLOUR": 1.000000, "FONTHEIGHT": 9.000000, "FONTTYPE": 2.000000, "HTMLNAME": "St David's", "WDS_ID": 0, "TI_572": null, "CHDI_572": null, "CAU_448": null, "THDI_572": null, "NAME_CY_EN": "Tyddewi\/St David's" }, "geometry": { "type": "Point", "coordinates": [ -5.258089106112287, 51.876705749703177 ] } },
{ "type": "Feature", "properties": { "ID": 34.000000, "NAME": "Penfro", "ORIENTATIO": 0, "FONTCOLOUR": 1.000000, "FONTHEIGHT": 9.000000, "FONTTYPE": 3.000000, "HTMLNAME": "Pembroke", "WDS_ID": 0, "TI_572": null, "CHDI_572": null, "CAU_448": null, "THDI_572": null, "NAME_CY_EN": "Penfro\/Pembroke" }, "geometry": { "type": "Point", "coordinates": [ -4.920811173504927, 51.671077135673521 ] } },
{ "type": "Feature", "properties": { "ID": 24.000000, "NAME": "Hwlffordd", "ORIENTATIO": 0, "FONTCOLOUR": 1.000000, "FONTHEIGHT": 10.000000, "FONTTYPE": 2.000000, "HTMLNAME": "Haverfordwest", "WDS_ID": 0, "TI_572": null, "CHDI_572": null, "CAU_448": null, "THDI_572": null, "NAME_CY_EN": "Hwlffordd\/Haverfordwest" }, "geometry": { "type": "Point", "coordinates": [ -4.980965037024538, 51.799592767113943 ] } },
{ "type": "Feature", "properties": { "ID": 2.000000, "NAME": "Abergwaun", "ORIENTATIO": 0, "FONTCOLOUR": 1.000000, "FONTHEIGHT": 9.000000, "FONTTYPE": 2.000000, "HTMLNAME": "Fishguard", "WDS_ID": 0, "TI_572": null, "CHDI_572": null, "CAU_448": null, "THDI_572": null, "NAME_CY_EN": "Abergwaun\/Fishguard" }, "geometry": { "type": "Point", "coordinates": [ -4.967671247429327, 51.990285715231686 ] } },
{ "type": "Feature", "properties": { "ID": 22.000000, "NAME": "Dinbych-y-Pysgod", "ORIENTATIO": 0, "FONTCOLOUR": 1.000000, "FONTHEIGHT": 9.000000, "FONTTYPE": 2.000000, "HTMLNAME": "Tenby", "WDS_ID": 0, "TI_572": null, "CHDI_572": null, "CAU_448": null, "THDI_572": null, "NAME_CY_EN": "Dinbych-y-Pysgod\/Tenby" }, "geometry": { "type": "Point", "coordinates": [ -4.687139350467501, 51.67215875609395 ] } },
{ "type": "Feature", "properties": { "ID": 6.000000, "NAME": "Aberteifi", "ORIENTATIO": 0, "FONTCOLOUR": 1.000000, "FONTHEIGHT": 9.000000, "FONTTYPE": 3.000000, "HTMLNAME": "Cardigan", "WDS_ID": 0, "TI_572": null, "CHDI_572": null, "CAU_448": null, "THDI_572": null, "NAME_CY_EN": "Aberteifi\/Cardigan" }, "geometry": { "type": "Point", "coordinates": [ -4.667397948574164, 52.083849703436108 ] } },
{ "type": "Feature", "properties": { "ID": 13.000000, "NAME": "Caerfyrddin", "ORIENTATIO": 0, "FONTCOLOUR": 1.000000, "FONTHEIGHT": 10.000000, "FONTTYPE": 3.000000, "HTMLNAME": "Carmarthen", "WDS_ID": 0, "TI_572": null, "CHDI_572": null, "CAU_448": null, "THDI_572": null, "NAME_CY_EN": "Caerfyrddin\/Carmarthen" }, "geometry": { "type": "Point", "coordinates": [ -4.303602713471776, 51.852064341143112 ] } },
{ "type": "Feature", "properties": { "ID": 29.000000, "NAME": "Llanelli", "ORIENTATIO": 0, "FONTCOLOUR": 1.000000, "FONTHEIGHT": 11.000000, "FONTTYPE": 3.000000, "HTMLNAME": "Llanelli", "WDS_ID": 0, "TI_572": null, "CHDI_572": null, "CAU_448": null, "THDI_572": null, "NAME_CY_EN": "Llanelli" }, "geometry": { "type": "Point", "coordinates": [ -4.152109237591926, 51.680610563585091 ] } },
{ "type": "Feature", "properties": { "ID": 25.000000, "NAME": "Llanbedr Pont Steffan", "ORIENTATIO": 0, "FONTCOLOUR": 1.000000, "FONTHEIGHT": 9.000000, "FONTTYPE": 2.000000, "HTMLNAME": "Lampeter", "WDS_ID": 0, "TI_572": null, "CHDI_572": null, "CAU_448": null, "THDI_572": null, "NAME_CY_EN": "Llanbedr Pont Steffan\/Lampeter" }, "geometry": { "type": "Point", "coordinates": [ -4.092797784686514, 52.111285022642654 ] } },
{ "type": "Feature", "properties": { "ID": 7.000000, "NAME": "Aberystwyth", "ORIENTATIO": 0, "FONTCOLOUR": 1.000000, "FONTHEIGHT": 10.000000, "FONTTYPE": 3.000000, "HTMLNAME": "Aberystwyth", "WDS_ID": 0, "TI_572": null, "CHDI_572": null, "CAU_448": null, "THDI_572": null, "NAME_CY_EN": "Aberystwyth" }, "geometry": { "type": "Point", "coordinates": [ -4.094808899663313, 52.415892970735641 ] } },
{ "type": "Feature", "properties": { "ID": 26.000000, "NAME": "Llandeilo", "ORIENTATIO": 0, "FONTCOLOUR": 1.000000, "FONTHEIGHT": 9.000000, "FONTTYPE": 2.000000, "HTMLNAME": "Llandeilo", "WDS_ID": 0, "TI_572": null, "CHDI_572": null, "CAU_448": null, "THDI_572": null, "NAME_CY_EN": "Llandeilo" }, "geometry": { "type": "Point", "coordinates": [ -3.999092058636847, 51.881851391007878 ] } },
{ "type": "Feature", "properties": { "ID": 1.000000, "NAME": "Aberd창r", "ORIENTATIO": 0, "FONTCOLOUR": 1.000000, "FONTHEIGHT": 11.000000, "FONTTYPE": 2.000000, "HTMLNAME": "Aberdare", "WDS_ID": 0, "TI_572": null, "CHDI_572": null, "CAU_448": null, "THDI_572": null, "NAME_CY_EN": "\/Aberdare" }, "geometry": { "type": "Point", "coordinates": [ -3.455382859361058, 51.710381316050174 ] } },
{ "type": "Feature", "properties": { "ID": 32.000000, "NAME": "Merthyr Tudful", "ORIENTATIO": 0, "FONTCOLOUR": 1.000000, "FONTHEIGHT": 11.000000, "FONTTYPE": 3.000000, "HTMLNAME": "Merthyr Tydfil", "WDS_ID": 0, "TI_572": null, "CHDI_572": null, "CAU_448": null, "THDI_572": null, "NAME_CY_EN": "Merthyr Tudful\/Merthyr Tydfil" }, "geometry": { "type": "Point", "coordinates": [ -3.363566490411348, 51.746363234150657 ] } },
{ "type": "Feature", "properties": { "ID": 3.000000, "NAME": "Aberhonddu", "ORIENTATIO": 0, "FONTCOLOUR": 1.000000, "FONTHEIGHT": 9.000000, "FONTTYPE": 2.000000, "HTMLNAME": "Brecon", "WDS_ID": 0, "TI_572": null, "CHDI_572": null, "CAU_448": null, "THDI_572": null, "NAME_CY_EN": "Aberhonddu\/Brecon" }, "geometry": { "type": "Point", "coordinates": [ -3.379882600631642, 51.94632754545794 ] } },
{ "type": "Feature", "properties": { "ID": 27.000000, "NAME": "Llandrindod", "ORIENTATIO": 0, "FONTCOLOUR": 1.000000, "FONTHEIGHT": 9.000000, "FONTTYPE": 2.000000, "HTMLNAME": "Llandrindod Wells", "WDS_ID": 0, "TI_572": null, "CHDI_572": null, "CAU_448": null, "THDI_572": null, "NAME_CY_EN": "Llandrindod\/Llandrindod Wells" }, "geometry": { "type": "Point", "coordinates": [ -3.362934875913517, 52.24029940064203 ] } },
{ "type": "Feature", "properties": { "ID": 42.000000, "NAME": "Rhymni", "ORIENTATIO": 0, "FONTCOLOUR": 1.000000, "FONTHEIGHT": 9.000000, "FONTTYPE": 2.000000, "HTMLNAME": "Rhymney", "WDS_ID": 111, "TI_572": "ti", "CHDI_572": null, "CAU_448": null, "THDI_572": null, "NAME_CY_EN": "Rhymni\/Rhymney" }, "geometry": { "type": "Point", "coordinates": [ -3.277923797845065, 51.760280676629762 ] } },
{ "type": "Feature", "properties": { "ID": 47.000000, "NAME": "Y Drenewydd", "ORIENTATIO": 0, "FONTCOLOUR": 1.000000, "FONTHEIGHT": 10.000000, "FONTTYPE": 3.000000, "HTMLNAME": "Newtown", "WDS_ID": 0, "TI_572": null, "CHDI_572": null, "CAU_448": null, "THDI_572": null, "NAME_CY_EN": "Y Drenewydd\/Newtown" }, "geometry": { "type": "Point", "coordinates": [ -3.325411682231609, 52.510663816088602 ] } },
{ "type": "Feature", "properties": { "ID": 43.000000, "NAME": "Trefynwy", "ORIENTATIO": 0, "FONTCOLOUR": 1.000000, "FONTHEIGHT": 10.000000, "FONTTYPE": 2.000000, "HTMLNAME": "Monmouth", "WDS_ID": 0, "TI_572": null, "CHDI_572": null, "CAU_448": null, "THDI_572": null, "NAME_CY_EN": "Trefynwy\/Monmouth" }, "geometry": { "type": "Point", "coordinates": [ -2.717369347470509, 51.814022568346743 ] } },
{ "type": "Feature", "properties": { "ID": 5.000000, "NAME": "Abertawe", "ORIENTATIO": 0, "FONTCOLOUR": 1.000000, "FONTHEIGHT": 15.000000, "FONTTYPE": 3.000000, "HTMLNAME": "Swansea", "WDS_ID": 0, "TI_572": null, "CHDI_572": null, "CAU_448": null, "THDI_572": null, "NAME_CY_EN": "Abertawe\/Swansea" }, "geometry": { "type": "Point", "coordinates": [ -3.926071817848254, 51.617224032537173 ] } },
{ "type": "Feature", "properties": { "ID": 18.000000, "NAME": "Castell-nedd", "ORIENTATIO": 0, "FONTCOLOUR": 1.000000, "FONTHEIGHT": 11.000000, "FONTTYPE": 3.000000, "HTMLNAME": "Neath", "WDS_ID": 0, "TI_572": null, "CHDI_572": null, "CAU_448": null, "THDI_572": null, "NAME_CY_EN": "Castell-nedd\/Neath" }, "geometry": { "type": "Point", "coordinates": [ -3.795732508205224, 51.656176150208196 ] } },
{ "type": "Feature", "properties": { "ID": 36.000000, "NAME": "Port Talbot", "ORIENTATIO": 0, "FONTCOLOUR": 1.000000, "FONTHEIGHT": 11.000000, "FONTTYPE": 3.000000, "HTMLNAME": "Port Talbot", "WDS_ID": 0, "TI_572": null, "CHDI_572": null, "CAU_448": null, "THDI_572": null, "NAME_CY_EN": "Port Talbot" }, "geometry": { "type": "Point", "coordinates": [ -3.778514995064532, 51.591359607077521 ] } },
{ "type": "Feature", "properties": { "ID": 33.000000, "NAME": "Pen-y-bont-ar-Ogwr", "ORIENTATIO": 0, "FONTCOLOUR": 1.000000, "FONTHEIGHT": 11.000000, "FONTTYPE": 3.000000, "HTMLNAME": "Bridgend", "WDS_ID": 0, "TI_572": null, "CHDI_572": null, "CAU_448": null, "THDI_572": null, "NAME_CY_EN": "Pen-y-bont-ar-Ogwr\/Bridgend" }, "geometry": { "type": "Point", "coordinates": [ -3.594275141774398, 51.507540593570724 ] } },
{ "type": "Feature", "properties": { "ID": 35.000000, "NAME": "Pontypridd", "ORIENTATIO": 0, "FONTCOLOUR": 1.000000, "FONTHEIGHT": 10.000000, "FONTTYPE": 2.000000, "HTMLNAME": "Pontypridd", "WDS_ID": 0, "TI_572": null, "CHDI_572": null, "CAU_448": null, "THDI_572": null, "NAME_CY_EN": "Pontypridd" }, "geometry": { "type": "Point", "coordinates": [ -3.332841752622188, 51.599379544383972 ] } },
{ "type": "Feature", "properties": { "ID": 16.000000, "NAME": "Caerdydd", "ORIENTATIO": 0, "FONTCOLOUR": 1.000000, "FONTHEIGHT": 15.000000, "FONTTYPE": 3.000000, "HTMLNAME": "Cardiff", "WDS_ID": 0, "TI_572": null, "CHDI_572": null, "CAU_448": null, "THDI_572": null, "NAME_CY_EN": "Caerdydd\/Cardiff" }, "geometry": { "type": "Point", "coordinates": [ -3.161273911622621, 51.474217140379125 ] } },
{ "type": "Feature", "properties": { "ID": 20.000000, "NAME": "Cwmbr창n", "ORIENTATIO": 0, "FONTCOLOUR": 1.000000, "FONTHEIGHT": 11.000000, "FONTTYPE": 2.000000, "HTMLNAME": "Cwmbr창n", "WDS_ID": 0, "TI_572": null, "CHDI_572": null, "CAU_448": null, "THDI_572": null, "NAME_CY_EN": "Cwmbr창n" }, "geometry": { "type": "Point", "coordinates": [ -3.009584427304159, 51.653850159809707 ] } },
{ "type": "Feature", "properties": { "ID": 17.000000, "NAME": "Casnewydd", "ORIENTATIO": 0, "FONTCOLOUR": 1.000000, "FONTHEIGHT": 13.000000, "FONTTYPE": 3.000000, "HTMLNAME": "Newport", "WDS_ID": 0, "TI_572": null, "CHDI_572": null, "CAU_448": null, "THDI_572": null, "NAME_CY_EN": "Casnewydd\/Newport" }, "geometry": { "type": "Point", "coordinates": [ -2.98138829432619, 51.58304096487587 ] } }
]
}
